SALE TYPE,SOLD DATE,PROPERTY TYPE,ADDRESS,CITY,STATE OR PROVINCE,ZIP OR POSTAL CODE,PRICE,BEDS,BATHS,LOCATION,SQUARE FEET,LOT SIZE,YEAR BUILT,DAYS ON MARKET,$/SQUARE FEET,HOA/MONTH,STATUS,NEXT OPEN HOUSE START TIME,NEXT OPEN HOUSE END TIME,URL (SEE https://www.redfin.com/buy-a-home/comparative-market-analysis FOR INFO ON PRICING),SOURCE,MLS#,FAVORITE,INTERESTED,LATITUDE,LONGITUDE
"In accordance with local MLS rules, some MLS listings are not included in the download"
MLS Listing,,Condo/Co-op,35530 Monterra Ter #302,Union City,CA,94587,638888,2,2.0,MONTE VISTA,1007,8310,2001,3,634,560,Active,,,https://www.redfin.com/CA/Union-City/35530-Monterra-Ter-94587/unit-302/home/1222844,"bridgeMLS, Bay East AOR, or Contra Costa AOR",41082856,N,Y,37.5853456,-122.0116563
MLS Listing,,Condo/Co-op,271 Famoso Plz,Union City,CA,94587,730000,3,2.0,MISSION VILLAGE,1135,68035,1985,81,643,416,Active,,,https://www.redfin.com/CA/Union-City/271-Famoso-Plz-94587/home/1995638,"bridgeMLS, Bay East AOR, or Contra Costa AOR",41077880,N,Y,37.594382,-122.0042
MLS Listing,,Single Family Residential,4577 Niland St,Union City,CA,94587,2488950,5,4.0,UNION CITY,3160,5000,2006,1,788,,Active,,,https://www.redfin.com/CA/Union-City/4577-Niland-St-94587/home/12115780,MLSListings,ML81989552,N,Y,37.5754432,-122.0653754
MLS Listing,,Single Family Residential,370 Appian Way,Union City,CA,94587,2429000,6,6.0,7 HILLS,3650,8378,1977,1,665,,Active,,,https://www.redfin.com/CA/Union-City/370-Appian-Way-94587/home/846429,"bridgeMLS, Bay East AOR, or Contra Costa AOR",41082976,N,Y,37.5972989,-122.0038244
MLS Listing,,Single Family Residential,115 Edna Ct,Union City,CA,94587,949950,3,2.0,TAMARACK GARDENS,1248,6392,1960,1,761,,Active,January-25-2025 01:30 PM,January-25-2025 04:00 PM,https://www.redfin.com/CA/Union-City/115-Edna-Ct-94587/home/1450880,"bridgeMLS, Bay East AOR, or Contra Costa AOR",41082974,N,Y,37.6068624,-122.0311546
MLS Listing,,Condo/Co-op,4984 Bridgepointe Pl,Union City,CA,94587,489900,1,1.0,UNION CITY,672,,1984,3,729,352,Active,,,https://www.redfin.com/CA/Union-City/4984-Bridgepointe-Pl-94587/home/194347085,MLSListings,ML81990433,N,Y,37.5668652,-122.0697271
MLS Listing,,Condo/Co-op,4926 Lowry Rd,Union City,CA,94587,625000,2,1.5,UNION CITY,888,,1985,3,704,403,Active,January-25-2025 01:00 PM,January-25-2025 03:00 PM,https://www.redfin.com/CA/Union-City/4926-Lowry-Rd-94587/home/1140376,MLSListings,ML81990834,N,Y,37.5674107,-122.0690564
MLS Listing,,Single Family Residential,1808 Mirabella,Union City,CA,94587,1530000,3,2.5,CA ROSECREST,1851,4857,1999,3,827,,Active,,,https://www.redfin.com/CA/Union-City/1808-Mirabella-Dr-94587/home/1558184,"bridgeMLS, Bay East AOR, or Contra Costa AOR",41082460,N,Y,37.6010183,-122.0476764
MLS Listing,,Single Family Residential,266 Appian Way,Union City,CA,94587,1200000,5,2.0,SEVEN HILLS,1584,7575,1963,4,758,,Active,,,https://www.redfin.com/CA/Union-City/266-Appian-Way-94587/home/846121,"bridgeMLS, Bay East AOR, or Contra Costa AOR",41082732,N,Y,37.5949198,-122.0034751
MLS Listing,,Townhouse,35496 Monterra Cir,Union City,CA,94587,699000,2,2.0,ALAMEDA,1015,1015,2001,5,689,466,Active,January-25-2025 01:00 PM,January-25-2025 04:00 PM,https://www.redfin.com/CA/Union-City/35496-Monterra-Cir-94587/home/1956816,"bridgeMLS, Bay East AOR, or Contra Costa AOR",41082485,N,Y,37.5852862,-122.0121852
MLS Listing,,Single Family Residential,32728 Shaver Lake St,Fremont,CA,94555,1938000,4,2.5,FREMONT,1889,5415,1977,5,1026,,Active,January-20-2025 11:00 AM,January-20-2025 01:00 PM,https://www.redfin.com/CA/Fremont/32728-Shaver-Lake-St-94555/home/1132749,MLSListings,ML81990541,N,Y,37.5890735,-122.0559664
MLS Listing,,Townhouse,4647 Granada Way,Union City,CA,94587,799000,3,1.0,Union City,1155,1520,1972,6,692,288,Active,,,https://www.redfin.com/CA/Union-City/4647-Granada-Way-94587/home/902440,MLSListings,ML81990373,N,Y,37.5867133,-122.0803713
MLS Listing,,Townhouse,4404 Corto Monterey,Union City,CA,94587,649000,2,1.5,UNION CITY,1054,1422,1972,6,616,308,Active,,,https://www.redfin.com/CA/Union-City/4404-Corto-Monterey-94587/home/1036594,MLSListings,ML81990341,N,Y,37.5909336,-122.0804933
MLS Listing,,Single Family Residential,30971 Watkins St,Union City,CA,94587,1398000,5,4.0,Union City,1802,5400,1924,10,776,,Active,,,https://www.redfin.com/CA/Union-City/30971-Watkins-St-94587/home/1827983,MLSListings,ML81990041,N,Y,37.5969203,-122.0791583
MLS Listing,,Single Family Residential,2562 Cherrywood Dr,Union City,CA,94587,1575000,3,2.0,CREEKSIDE,1813,6700,1970,10,869,,Active,,,https://www.redfin.com/CA/Union-City/2562-Cherrywood-Dr-94587/home/1752640,"bridgeMLS, Bay East AOR, or Contra Costa AOR",41082043,N,Y,37.5830596,-122.0239575
MLS Listing,,Single Family Residential,4334 Bolina Dr,Union City,CA,94587,1999888,4,3.0,PONDEROSA LANDNG,2415,4500,1994,11,828,8,Active,,,https://www.redfin.com/CA/Union-City/4334-Bolina-Dr-94587/home/956024,"bridgeMLS, Bay East AOR, or Contra Costa AOR",41081886,N,Y,37.592895,-122.0839886
MLS Listing,,Single Family Residential,33712 14th St,Union City,CA,94587,999888,3,1.5,ALAMEDA COUNTY,814,4978,1914,11,1228,,Active,,,https://www.redfin.com/CA/Union-City/33712-14th-St-94587/home/1262887,"bridgeMLS, Bay East AOR, or Contra Costa AOR",41081387,N,Y,37.5958504,-122.0253223
MLS Listing,,Townhouse,4608 Granada Way,Union City,CA,94587,799000,3,1.5,EL DORADO PARK,1298,1600,1972,12,616,308,Active,,,https://www.redfin.com/CA/Union-City/4608-Granada-Way-94587/home/1037353,"bridgeMLS, Bay East AOR, or Contra Costa AOR",41081336,N,Y,37.5872214,-122.0792219
MLS Listing,,Single Family Residential,1902 Baylor St,Union City,CA,94587,1488888,5,3.0,ALVARADO NILES,1841,6300,1960,13,809,,Active,January-20-2025 12:00 PM,January-20-2025 03:00 PM,https://www.redfin.com/CA/Union-City/1902-Baylor-St-94587/home/1838244,"bridgeMLS, Bay East AOR, or Contra Costa AOR",41081741,N,Y,37.5920584,-122.0280262
MLS Listing,,Mobile/Manufactured Home,2542 Barclay Ave #122,Union City,CA,94587,379900,3,2.0,CENTRAL PARK WEST,1456,,,34,261,,Active,,,https://www.redfin.com/CA/Union-City/2542-Barclay-Ave-94587/unit-122/home/193961952,"bridgeMLS, Bay East AOR, or Contra Costa AOR",41080798,N,Y,37.6032475,-122.0611728
MLS Listing,,Single Family Residential,35978 Green St,Union City,CA,94587,1895000,4,2.5,Not Listed,2250,4513,2006,40,842,,Active,,,https://www.redfin.com/CA/Union-City/35978-Green-St-94587/home/12114641,"bridgeMLS, Bay East AOR, or Contra Costa AOR",41080490,N,Y,37.586556,-122.0068882
MLS Listing,,Condo/Co-op,137 Aurora Plz,Union City,CA,94587,483000,2,1.0,UNION CITY,685,49234,1984,59,705,416,Active,,,https://www.redfin.com/CA/Union-City/137-Aurora-Plz-94587/home/1501582,"bridgeMLS, Bay East AOR, or Contra Costa AOR",41079477,N,Y,37.592082,-122.003169
MLS Listing,,Townhouse,2531 Village Dr,Union City,CA,94587,870000,2,2.5,UNION CITY,1273,56811,1984,60,683,415,Active,,,https://www.redfin.com/CA/Union-City/2531-Village-Dr-94587/home/1635354,MLSListings,ML81983334,N,Y,37.5912382,-122.0385942
MLS Listing,,Single Family Residential,35955 Nickel St,Union City,CA,94587,2150000,4,2.5,UNION CITY,2472,7755,2005,74,870,,Active,,,https://www.redfin.com/CA/Union-City/35955-Nickel-St-94587/home/2111332,"bridgeMLS, Bay East AOR, or Contra Costa AOR",41078486,N,Y,37.5855038,-122.008558
MLS Listing,,Condo/Co-op,276 Galano Plz,Union City,CA,94587,585000,2,2.0,MISSION VILLAGE,880,50943,1985,76,665,416,Active,,,https://www.redfin.com/CA/Union-City/276-Galano-Plz-94587/home/716286,"bridgeMLS, Bay East AOR, or Contra Costa AOR",41078273,N,Y,37.593662,-122.003494
MLS Listing,,Multi-Family (2-4 Unit),2610 Hop Ranch Rd,Union City,CA,94587,1698888,6,3.0,Union City,2832,6463,1980,76,600,,Active,,,https://www.redfin.com/CA/Union-City/2610-Hop-Ranch-Rd-94587/home/1867407,"bridgeMLS, Bay East AOR, or Contra Costa AOR",41075741,N,Y,37.593774,-122.047112
MLS Listing,,Single Family Residential,32996 Soquel,Union City,CA,94587,1500000,3,2.0,PONDEROSA,1552,4504,1980,86,966,,Active,,,https://www.redfin.com/CA/Union-City/32996-Soquel-St-94587/home/1805785,"bridgeMLS, Bay East AOR, or Contra Costa AOR",41077565,N,Y,37.5708689,-122.0673622
MLS Listing,,Condo/Co-op,2623 Copa Del Oro Dr,Union City,CA,94587,580000,2,2.0,VILLA DE ORO,908,33401,1986,87,639,550,Active,,,https://www.redfin.com/CA/Union-City/2623-Copa-del-Oro-Dr-94587/home/1024552,"bridgeMLS, Bay East AOR, or Contra Costa AOR",41077473,N,Y,37.5894979,-122.0380176
MLS Listing,,Single Family Residential,3263 Santa Susana Way,Union City,CA,94587,1539000,5,4.0,Union City,2155,5720,1971,94,714,,Active,,,https://www.redfin.com/CA/Union-City/3263-Santa-Susana-Way-94587/home/2032883,San Francisco MLS,424072948,N,Y,37.5935948,-122.0679196
MLS Listing,,Single Family Residential,30793 Vallejo St,Union City,CA,94587,3995000,3,2.0,UNION CITY,1441,52272,1927,110,2772,,Active,,,https://www.redfin.com/CA/Union-City/30793-Vallejo-St-94587/home/1453927,MLSListings,ML81982371,N,Y,37.5985296,-122.0800827
MLS Listing,,Multi-Family (5+ Unit),3850 Smith St,Union City,CA,94587,999000,,,UNION CITY,2503,4927,1890,154,399,,Active,,,https://www.redfin.com/CA/Union-City/3850-Smith-St-94587/home/192148605,"bridgeMLS, Bay East AOR, or Contra Costa AOR",41070321,N,Y,37.5963214,-122.0780219
MLS Listing,,Vacant Land,32513 Mission Blvd,Hayward,CA,94544,1995000,,,Hayward,,,,594,,,Active,,,https://www.redfin.com/CA/Hayward/32513-Mission-Blvd-94544/home/185656942,"bridgeMLS, Bay East AOR, or Contra Costa AOR",41029477,N,Y,37.612279,-122.0275054
